[
    {
        "id": 1,
        "name": "서울월드컵경기장",
        "Sit_image":"f1.jpg",
        "Latitude": 37.5682005661446,
        "Longitude": 126.897339938806,
        "Sits_kakao": [
            {"name":"2등석", "color":"blue", 
            "coordinate":[[37.568449240514965, 126.8983809729403], [37.56765612162475, 126.89809907094869], [37.56796077812493, 126.89616872820336], [37.5688844960477, 126.89639383324712]]}, 
            {"name":"3등석", "color":"purple", 
            "coordinate":[[37.569232415842194, 126.89758189007006], [37.56732624662793, 126.89693365012207]]},
            {"name":"레드존", "color":"red",
            "coordinate":[[37.56895752912997, 126.89748605177152]]},
            {"name":"1등석", "color":"yellow", 
            "coordinate":[[37.56813352639885, 126.8979569299575], [37.56839364773377, 126.8966152392735]]}
        ]     
    },
    {
        "id": 2,
        "name": "수원월드컵경기장",
        "Sit_image":"f2.jpg",
        "Latitude": 37.2865363972255,
        "Longitude": 127.036960165392
    },
    {
        "id": 3,
        "name": "울산문수축구경기장",
        "Sit_image":"f3.jpg",
        "Latitude": 35.5352704220887,
        "Longitude": 129.259518898574
    },
    {
        "id": 4,
        "name": "제주월드컵경기장",
        "Sit_image":"f4.jpg",
        "Latitude": 33.2461497777253,
        "Longitude": 126.509369297588
    },
    {
        "id": 5,
        "name": "전주월드컵경기장",
        "Sit_image":"f5.jpg",
        "Latitude": 35.8680257405717,
        "Longitude": 127.064469745269
    },
    {
        "id": 6,
        "name": "인천축구전용경기장",
        "Sit_image":"f6.jpg",
        "Latitude": 37.4660997644701,
        "Longitude": 126.642996644145
    },
    {
        "id": 7,
        "name": "포항스틸야드",
        "Sit_image":"f7.jpg",
        "Latitude": 35.9977074690712,
        "Longitude": 129.384412531017
    },

    {
        "id": 8,
        "name": "DGB대구은행파크",
        "Sit_image":"f8.jpg",
        "Latitude": 35.8813022424283,
        "Longitude": 128.588102570603
    },
    {
        "id": 9,
        "name": "수원종합운동장",
        "Sit_image":"f9.jpg",
        "Latitude": 37.2977505337729,
        "Longitude": 127.011357562726
    },
    {
        "id": 10,
        "name": "김천종합운동장",
        "Sit_image":"f9.jpg",
        "Latitude": 36.1396743935375,
        "Longitude": 128.086420999347
    },
    {
        "id": 11,
        "name": "강릉종합운동장",
        "Sit_image":"f9.jpg",
        "Latitude": 37.7736937727731,
        "Longitude": 128.897580532573
    },
    {
        "id": 12,
        "name": "탄천종합운동장",
        "Sit_image":"f9.jpg",
        "Latitude": 37.4101642208818,
        "Longitude": 127.12131304198
    }
]